[
  {"name":"Krishna Janmabhoomi","city":"Mathura","latitude":27.5046,"longitude":77.6737,"visitDuration":2,"entryFee":0,"priority":1,"time_slot":"dawn","theme_group":"temples","best_season":"October to March","description":"The birthplace of Lord Krishna. A grand temple complex marking the exact spot where Krishna was born in a prison cell.","image":"https://upload.wikimedia.org/wikipedia/commons/thumb/9/9d/Mathura_Temple-Mathura-India0002.JPG/960px-Mathura_Temple-Mathura-India0002.JPG","publicId":"seeded"},
  {"name":"Banke Bihari Temple","city":"Mathura","latitude":27.5694,"longitude":77.6622,"visitDuration":1.5,"entryFee":0,"priority":1,"time_slot":"morning","theme_group":"temples","description":"One of the most revered temples in Vrindavan dedicated to Lord Krishna. Famous for its unique curtain darshan tradition.","image":"https://upload.wikimedia.org/wikipedia/commons/thumb/e/e3/Banke_Bihari_Vrindavan.jpg/960px-Banke_Bihari_Vrindavan.jpg","publicId":"seeded"},
  {"name":"Dwarkadhish Temple","city":"Mathura","latitude":27.5052,"longitude":77.6764,"visitDuration":1.5,"entryFee":0,"priority":1,"time_slot":"morning","theme_group":"temples","description":"19th-century temple dedicated to Lord Krishna as the King of Dwarka. Known for elaborate Rajasthani architecture and vibrant festivals.","image":"https://upload.wikimedia.org/wikipedia/commons/thumb/0/0c/Dwarakadheesh_Temple%2C_2014.jpg/960px-Dwarakadheesh_Temple%2C_2014.jpg","publicId":"seeded"},
  {"name":"Vishram Ghat","city":"Mathura","latitude":27.5033,"longitude":77.6779,"visitDuration":1,"entryFee":0,"priority":1,"time_slot":"aarti","theme_group":"ghats","description":"The main ghat on the Yamuna where Lord Krishna is believed to have rested after slaying the tyrant Kansa. Evening aarti is mesmerizing.","image":"https://upload.wikimedia.org/wikipedia/commons/thumb/7/76/Edwin_Lord_Weeks_-_Along_the_Ghats%2C_Mathura.jpg/960px-Edwin_Lord_Weeks_-_Along_the_Ghats%2C_Mathura.jpg","publicId":"seeded"},
  {"name":"Govardhan Hill","city":"Mathura","latitude":27.4967,"longitude":77.4596,"visitDuration":3,"entryFee":0,"priority":1,"time_slot":"morning","theme_group":"nature","best_season":"October to March","description":"Sacred hill Lord Krishna lifted on his finger to protect villagers from Indra's rains. Pilgrims do parikrama (21 km circumambulation).","image":"https://upload.wikimedia.org/wikipedia/commons/thumb/1/12/Govardhan_hill%2C_Govardhan.jpg/960px-Govardhan_hill%2C_Govardhan.jpg","publicId":"seeded"},
  {"name":"Prem Mandir","city":"Mathura","latitude":27.5711,"longitude":77.6568,"visitDuration":1.5,"entryFee":0,"priority":1,"time_slot":"anytime","theme_group":"temples","description":"Stunning white marble temple in Vrindavan depicting Krishna's divine pastimes. Magnificent light show every evening.","image":"https://upload.wikimedia.org/wikipedia/commons/thumb/e/e3/Banke_Bihari_Vrindavan.jpg/960px-Banke_Bihari_Vrindavan.jpg","publicId":"seeded"},
  {"name":"ISKCON Vrindavan","city":"Mathura","latitude":27.5647,"longitude":77.6637,"visitDuration":1.5,"entryFee":0,"priority":2,"time_slot":"morning","theme_group":"temples","description":"Krishna-Balaram Mandir — ISKCON's most important temple in India. Beautiful deities, kirtans, and free vegetarian prasad daily.","image":"https://upload.wikimedia.org/wikipedia/commons/thumb/0/0c/Dwarakadheesh_Temple%2C_2014.jpg/960px-Dwarakadheesh_Temple%2C_2014.jpg","publicId":"seeded"},
  {"name":"Kusum Sarovar","city":"Mathura","latitude":27.5100,"longitude":77.4528,"visitDuration":1,"entryFee":0,"priority":2,"time_slot":"anytime","theme_group":"historic","description":"Beautiful sandstone reservoir between Govardhan and Radha Kund. Features stunning chhatris and cenotaphs of Bharatpur rulers.","image":"https://upload.wikimedia.org/wikipedia/commons/thumb/f/fe/Chhatris_of_Kusum_Sarovar.jpg/960px-Chhatris_of_Kusum_Sarovar.jpg","publicId":"seeded"},
  {"name":"Radha Kund","city":"Mathura","latitude":27.5067,"longitude":77.4417,"visitDuration":1,"entryFee":0,"priority":2,"time_slot":"morning","theme_group":"ghats","description":"Most sacred bathing place for Vaishnavas. Believed to have been created by Radha herself. Pilgrims bathe here on Ahoi Ashtami.","image":"https://upload.wikimedia.org/wikipedia/commons/thumb/2/29/Radha_Kund_3.jpg/960px-Radha_Kund_3.jpg","publicId":"seeded"},
  {"name":"Nidhivan","city":"Mathura","latitude":27.5679,"longitude":77.6651,"visitDuration":1,"entryFee":0,"priority":2,"time_slot":"morning","theme_group":"nature","description":"Sacred grove where Krishna is believed to perform Raas Leela every night. The trees have unique twisted trunks. No one stays after sunset.","image":"https://upload.wikimedia.org/wikipedia/commons/thumb/1/12/Govardhan_hill%2C_Govardhan.jpg/960px-Govardhan_hill%2C_Govardhan.jpg","publicId":"seeded"},
  {"name":"Keshi Ghat","city":"Mathura","latitude":27.5710,"longitude":77.6666,"visitDuration":0.75,"entryFee":0,"priority":2,"time_slot":"dawn","theme_group":"ghats","description":"Sacred ghat in Vrindavan where Krishna defeated the demon horse Keshi. Popular for sunrise prayers and peaceful Yamuna views.","image":"https://upload.wikimedia.org/wikipedia/commons/thumb/7/76/Edwin_Lord_Weeks_-_Along_the_Ghats%2C_Mathura.jpg/960px-Edwin_Lord_Weeks_-_Along_the_Ghats%2C_Mathura.jpg","publicId":"seeded"},
  {"name":"Rangji Temple","city":"Mathura","latitude":27.5727,"longitude":77.6628,"visitDuration":1,"entryFee":0,"priority":2,"time_slot":"morning","theme_group":"temples","description":"Unique temple blending South Indian Dravidian, North Indian Rajput, and European Gothic architectural styles. A 50-foot gopuram stands tall.","image":"https://upload.wikimedia.org/wikipedia/commons/thumb/0/0c/Dwarakadheesh_Temple%2C_2014.jpg/960px-Dwarakadheesh_Temple%2C_2014.jpg","publicId":"seeded"},
  {"name":"Mathura Museum","city":"Mathura","latitude":27.4993,"longitude":77.6771,"visitDuration":1.5,"entryFee":20,"priority":2,"time_slot":"morning","theme_group":"historic","description":"Houses one of India's finest collections of Mathura School sculptures, Kushan-era art, and ancient coins dating back 2000 years.","image":"https://upload.wikimedia.org/wikipedia/commons/thumb/9/9d/Mathura_Temple-Mathura-India0002.JPG/960px-Mathura_Temple-Mathura-India0002.JPG","publicId":"seeded"},
  {"name":"Radha Vallabh Temple","city":"Mathura","latitude":27.5682,"longitude":77.6659,"visitDuration":0.75,"entryFee":0,"priority":2,"time_slot":"morning","theme_group":"temples","description":"16th-century temple where Krishna's idol has no flute — its left hand is extended as if holding Radha's hand, symbolizing their eternal bond.","image":"https://upload.wikimedia.org/wikipedia/commons/thumb/e/e3/Banke_Bihari_Vrindavan.jpg/960px-Banke_Bihari_Vrindavan.jpg","publicId":"seeded"},
  {"name":"Radha Raman Temple","city":"Mathura","latitude":27.5690,"longitude":77.6642,"visitDuration":0.75,"entryFee":0,"priority":2,"time_slot":"morning","theme_group":"temples","description":"500-year-old temple housing a self-manifested deity of Krishna. One of the most important Gaudiya Vaishnava temples.","image":"https://upload.wikimedia.org/wikipedia/commons/thumb/e/e3/Banke_Bihari_Vrindavan.jpg/960px-Banke_Bihari_Vrindavan.jpg","publicId":"seeded"},
  {"name":"Seva Kunj","city":"Mathura","latitude":27.5671,"longitude":77.6649,"visitDuration":0.75,"entryFee":0,"priority":3,"time_slot":"anytime","theme_group":"nature","description":"Beautiful garden where Radha and Krishna are believed to have spent time together. Contains a small temple with divine murals.","image":"https://upload.wikimedia.org/wikipedia/commons/thumb/1/12/Govardhan_hill%2C_Govardhan.jpg/960px-Govardhan_hill%2C_Govardhan.jpg","publicId":"seeded"},
  {"name":"Gita Mandir","city":"Mathura","latitude":27.4906,"longitude":77.6725,"visitDuration":0.75,"entryFee":0,"priority":3,"time_slot":"anytime","theme_group":"temples","description":"Temple built by Birla family with entire Bhagavad Gita inscribed on its pillars. Features beautiful red sandstone architecture.","image":"https://upload.wikimedia.org/wikipedia/commons/thumb/9/9d/Mathura_Temple-Mathura-India0002.JPG/960px-Mathura_Temple-Mathura-India0002.JPG","publicId":"seeded"},
  {"name":"Potara Kund","city":"Mathura","latitude":27.5050,"longitude":77.6740,"visitDuration":0.5,"entryFee":0,"priority":3,"time_slot":"anytime","theme_group":"ghats","description":"Ancient stepped tank where baby Krishna's clothes were washed after his birth. A serene and historically significant site.","image":"https://upload.wikimedia.org/wikipedia/commons/thumb/7/76/Edwin_Lord_Weeks_-_Along_the_Ghats%2C_Mathura.jpg/960px-Edwin_Lord_Weeks_-_Along_the_Ghats%2C_Mathura.jpg","publicId":"seeded"},
  {"name":"Jama Masjid","city":"Mathura","latitude":27.5038,"longitude":77.6743,"visitDuration":0.5,"entryFee":0,"priority":3,"time_slot":"anytime","theme_group":"historic","description":"Built by Aurangzeb's governor in 1661, this mosque showcases fine Mughal architecture with four minarets and a large courtyard.","image":"https://upload.wikimedia.org/wikipedia/commons/thumb/9/9d/Mathura_Temple-Mathura-India0002.JPG/960px-Mathura_Temple-Mathura-India0002.JPG","publicId":"seeded"},
  {"name":"Birla Mandir","city":"Mathura","latitude":27.4889,"longitude":77.6731,"visitDuration":0.75,"entryFee":0,"priority":3,"time_slot":"anytime","theme_group":"temples","description":"Modern marble temple built by the Birla family dedicated to Lakshmi-Narayan. Known for beautiful gardens and clean premises.","image":"https://upload.wikimedia.org/wikipedia/commons/thumb/0/0c/Dwarakadheesh_Temple%2C_2014.jpg/960px-Dwarakadheesh_Temple%2C_2014.jpg","publicId":"seeded"}
]
