[
  {"name":"Vaishno Devi Temple","city":"Vaishno Devi","latitude":33.0306,"longitude":74.9499,"visitDuration":2,"entryFee":0,"priority":1,"time_slot":"dawn","theme_group":"temples","best_season":"March to October","description":"Sacred cave temple dedicated to Mata Vaishno Devi housing three natural rock formations (pindis) of Lakshmi, Saraswati, and Kali. 13 km trek from Katra.","image":"https://upload.wikimedia.org/wikipedia/commons/7/7e/Mata_vaishno_devi_pindi_photo.jpg","publicId":"seeded"},
  {"name":"Bhairon Temple","city":"Vaishno Devi","latitude":33.0350,"longitude":74.9550,"visitDuration":1,"entryFee":0,"priority":1,"time_slot":"morning","theme_group":"temples","description":"Temple 2.5 km above the main shrine. Pilgrimage is considered incomplete without visiting Bhairon Baba. Offers panoramic Himalayan views.","image":"https://upload.wikimedia.org/wikipedia/commons/7/7e/Mata_vaishno_devi_pindi_photo.jpg","publicId":"seeded"},
  {"name":"Ardhkuwari Temple","city":"Vaishno Devi","latitude":33.0120,"longitude":74.9420,"visitDuration":1,"entryFee":0,"priority":1,"time_slot":"anytime","theme_group":"temples","description":"Holy cave midway on the trek where Mata hid for 9 months. Pilgrims crawl through a narrow cave passage. Major rest point on the yatra.","image":"https://upload.wikimedia.org/wikipedia/commons/thumb/d/df/Ardhkuwari_temple_at_night.jpg/960px-Ardhkuwari_temple_at_night.jpg","publicId":"seeded"},
  {"name":"Ban Ganga","city":"Vaishno Devi","latitude":32.9980,"longitude":74.9350,"visitDuration":0.75,"entryFee":0,"priority":1,"time_slot":"anytime","theme_group":"ghats","description":"First stop on the trek. Mata shot an arrow creating this river for her thirsty followers. Pilgrims wash hands and feet before the climb.","image":"https://upload.wikimedia.org/wikipedia/commons/thumb/3/32/Katra_town1.JPG/960px-Katra_town1.JPG","publicId":"seeded"},
  {"name":"Katra Town","city":"Vaishno Devi","latitude":32.9915,"longitude":74.9318,"visitDuration":2,"entryFee":0,"priority":1,"time_slot":"anytime","theme_group":"other","description":"Base camp town for the Vaishno Devi pilgrimage. Bustling markets selling puja items, walking sticks, and local food. Starting point of trek.","image":"https://upload.wikimedia.org/wikipedia/commons/thumb/3/32/Katra_town1.JPG/960px-Katra_town1.JPG","publicId":"seeded"},
  {"name":"Shiv Khori","city":"Vaishno Devi","latitude":33.1147,"longitude":75.0817,"visitDuration":2.5,"entryFee":0,"priority":2,"time_slot":"morning","theme_group":"temples","description":"Natural cave shrine with a 4-feet natural Shiva lingam. 150-meter cave passage with stalactite formations resembling Hindu deities.","image":"https://upload.wikimedia.org/wikipedia/commons/6/6e/Shivkhori_cave.JPG","publicId":"seeded"},
  {"name":"Raghunath Temple","city":"Vaishno Devi","latitude":32.7299,"longitude":74.8652,"visitDuration":1.5,"entryFee":0,"priority":2,"time_slot":"morning","theme_group":"temples","description":"Largest temple complex in North India with 7 shrines. Houses rare Sanskrit manuscripts and Pahari miniature paintings. In Jammu city.","image":"https://upload.wikimedia.org/wikipedia/commons/9/9c/Hari_niwas.jpg","publicId":"seeded"},
  {"name":"Bahu Fort","city":"Vaishno Devi","latitude":32.7170,"longitude":74.8692,"visitDuration":1.5,"entryFee":0,"priority":2,"time_slot":"anytime","theme_group":"historic","description":"Ancient fort overlooking the Tawi River, believed to be built 3000 years ago. Houses a Kali temple and offers panoramic views of Jammu.","image":"https://upload.wikimedia.org/wikipedia/commons/thumb/5/59/Bahu_Fort%2C_Jammu%2C_India.jpg/960px-Bahu_Fort%2C_Jammu%2C_India.jpg","publicId":"seeded"},
  {"name":"Amar Mahal Palace","city":"Vaishno Devi","latitude":32.7266,"longitude":74.8701,"visitDuration":1,"entryFee":50,"priority":2,"time_slot":"anytime","theme_group":"historic","description":"19th-century French-style palace perched on a hilltop. Now a museum with a 120 kg gold throne, Pahari paintings, and royal artifacts.","image":"https://upload.wikimedia.org/wikipedia/commons/thumb/8/81/Amar_Mahal_Museum%2C_Jammu.jpg/960px-Amar_Mahal_Museum%2C_Jammu.jpg","publicId":"seeded"},
  {"name":"Patnitop","city":"Vaishno Devi","latitude":33.0872,"longitude":75.3239,"visitDuration":4,"entryFee":0,"priority":2,"time_slot":"anytime","theme_group":"nature","best_season":"March to June","description":"Hill station at 2024m with panoramic Himalayan views. Popular for paragliding, skiing, and pine forest walks. 2 hours from Katra.","image":"https://upload.wikimedia.org/wikipedia/en/thumb/4/47/Sanasar_Lake.jpeg/960px-Sanasar_Lake.jpeg","publicId":"seeded"},
  {"name":"Sanasar","city":"Vaishno Devi","latitude":33.0250,"longitude":75.2750,"visitDuration":3,"entryFee":0,"priority":2,"time_slot":"anytime","theme_group":"nature","best_season":"April to October","description":"Cup-shaped meadow surrounded by pine forests. Known as Jammu's adventure capital — paragliding, horse riding, and camping.","image":"https://upload.wikimedia.org/wikipedia/commons/thumb/b/b3/Paragliding_at_Sanasar.jpg/960px-Paragliding_at_Sanasar.jpg","publicId":"seeded"},
  {"name":"Mansar Lake","city":"Vaishno Devi","latitude":32.6942,"longitude":75.1467,"visitDuration":2,"entryFee":0,"priority":2,"time_slot":"anytime","theme_group":"nature","description":"Sacred lake surrounded by hills and forests. Newlyweds traditionally visit for blessings. Rich in Hindu mythological significance.","image":"https://upload.wikimedia.org/wikipedia/commons/4/40/Mansar_lake_photo.png","publicId":"seeded"},
  {"name":"Charan Paduka","city":"Vaishno Devi","latitude":33.0050,"longitude":74.9380,"visitDuration":0.5,"entryFee":0,"priority":2,"time_slot":"anytime","theme_group":"temples","description":"Rock with Mata's holy footprints imprinted naturally. First major shrine on the trek, about 1.5 km from Katra. Pilgrims pay respects here.","image":"https://upload.wikimedia.org/wikipedia/commons/7/7e/Mata_vaishno_devi_pindi_photo.jpg","publicId":"seeded"},
  {"name":"Hathi Matha","city":"Vaishno Devi","latitude":33.0200,"longitude":74.9450,"visitDuration":0.5,"entryFee":0,"priority":3,"time_slot":"anytime","theme_group":"nature","description":"Elephant-head shaped rock formation on the trek route. Natural viewpoint offering breathtaking valley views and a rest stop for pilgrims.","image":"https://upload.wikimedia.org/wikipedia/commons/thumb/d/df/Ardhkuwari_temple_at_night.jpg/960px-Ardhkuwari_temple_at_night.jpg","publicId":"seeded"},
  {"name":"Sanjhi Chhat","city":"Vaishno Devi","latitude":33.0250,"longitude":74.9470,"visitDuration":0.5,"entryFee":0,"priority":3,"time_slot":"anytime","theme_group":"other","description":"Helicopter base on the trek route. Beautiful viewpoint at 6800 ft. Rest area with food stalls and stunning Trikuta mountain views.","image":"https://upload.wikimedia.org/wikipedia/commons/thumb/3/32/Katra_town1.JPG/960px-Katra_town1.JPG","publicId":"seeded"},
  {"name":"Surinsar Lake","city":"Vaishno Devi","latitude":32.7083,"longitude":75.1250,"visitDuration":1.5,"entryFee":0,"priority":3,"time_slot":"anytime","theme_group":"nature","description":"Twin lake paired with Mansar — together a Ramsar wetland site. Dedicated to Lord Shiva, surrounded by dense forests and hills.","image":"https://upload.wikimedia.org/wikipedia/commons/thumb/5/5a/Mansar_Lake.jpg/960px-Mansar_Lake.jpg","publicId":"seeded"},
  {"name":"Peer Kho Cave","city":"Vaishno Devi","latitude":32.7260,"longitude":74.8500,"visitDuration":0.75,"entryFee":0,"priority":3,"time_slot":"anytime","theme_group":"temples","description":"Cave temple in Jammu dedicated to Lord Shiva. Houses a natural lingam formed by continuous water dripping. Ancient meditation site.","image":"https://upload.wikimedia.org/wikipedia/commons/6/6e/Shivkhori_cave.JPG","publicId":"seeded"},
  {"name":"Dera Baba Banda","city":"Vaishno Devi","latitude":33.0000,"longitude":74.9100,"visitDuration":1,"entryFee":0,"priority":3,"time_slot":"anytime","theme_group":"temples","description":"Sacred gurudwara near Katra associated with Sikh warrior-saint Banda Bahadur. Peaceful site with historical significance for Sikhs.","image":"https://upload.wikimedia.org/wikipedia/commons/thumb/3/32/Katra_town1.JPG/960px-Katra_town1.JPG","publicId":"seeded"},
  {"name":"Jhajjar Kotli","city":"Vaishno Devi","latitude":32.8500,"longitude":74.9500,"visitDuration":1.5,"entryFee":0,"priority":3,"time_slot":"anytime","theme_group":"nature","description":"Scenic picnic spot on the Jammu-Katra highway with waterfalls and a river crossing. Perfect stop before or after the yatra.","image":"https://upload.wikimedia.org/wikipedia/commons/thumb/b/b3/Paragliding_at_Sanasar.jpg/960px-Paragliding_at_Sanasar.jpg","publicId":"seeded"},
  {"name":"Nau Devi Temple","city":"Vaishno Devi","latitude":32.7350,"longitude":74.8600,"visitDuration":0.75,"entryFee":0,"priority":3,"time_slot":"morning","theme_group":"temples","description":"Ancient temple in Jammu dedicated to nine forms of Goddess Durga. Important Navratri celebrations draw large crowds.","image":"https://upload.wikimedia.org/wikipedia/commons/9/9c/Hari_niwas.jpg","publicId":"seeded"}
]
